{
"type": "FeatureCollection",
"features": [
    {
        "type": "Feature",
        "properties": {
            "City": "Havana",
            "Country": "Cuba"
            },
        "geometry": {
            "type": "Point",
            "coordinates": [-82.271056, 23.159167]
            }
        },
    {
        "type": "Feature",
        "properties": {
            "City": "New York City",
            "Country": "United States of America"
            },
        "geometry": {
            "type": "Point",
            "coordinates": [-74.005941, 40.712784]
            }
        },
    {
        "type": "Feature",
        "properties": {
            "City": "Brooklyn",
            "Country": "United States of America"
            },
        "geometry": {
            "type": "Point",
            "coordinates": [-73.944158, 40.678178]
            }
        },
    {
        "type": "Feature",
        "properties": {
            "City": "St Petersburg",
            "Country": "Russia"
            },
        "geometry": {
            "type": "Point",
            "coordinates": [-73.944158, 40.678178]
            }
        },
    {
        "type": "Feature",
        "properties": {
            "City": "Canton",
            "Country": "United States of America"
            },
        "geometry": {
            "type": "Point",
            "coordinates": [-81.378447, 40.798947]
            }
        },
    {
        "type": "Feature",
        "properties": {
            "City": "San Diego",
            "Country": "United States of America"
            },
        "geometry": {
            "type": "Point",
            "coordinates": [-117.161084, 32.715738]
            }
        },
    {
        "type": "Feature",
        "properties": {
            "City": "Brigham City",
            "Country": "United States of America"
            },
        "geometry": {
            "type": "Point",
            "coordinates": [-112.015502, 41.510213]
            }
        },
    {
        "type": "Feature",
        "properties": {
            "City": "Schenectady",
            "Country": "United States of America"
            },
        "geometry": {
            "type": "Point",
            "coordinates": [-73.939569, 42.814243]
            }
        },
    {
        "type": "Feature",
        "properties": {
            "City": "St Louis",
            "Country": "United States of America"
            },
        "geometry": {
            "type": "Point",
            "coordinates": [-90.199404, 38.627003]
            }
        },
    {
        "type": "Feature",
        "properties": {
            "City": "Freinwalde",
            "Country": "Germany"
            },
        "geometry": {
            "type": "Point",
            "coordinates": [14.03092, 52.78434]
            }
        },
    {
        "type": "Feature",
        "properties": {
            "City": "Bellwood",
            "Country": "United States of America"
            },
        "geometry": {
            "type": "Point",
            "coordinates": [-78.334438, 40.602401]
            }
        },
    {
        "type": "Feature",
        "properties": {
            "City": "East St Louis",
            "Country": "United States of America"
            },
        "geometry": {
            "type": "Point",
            "coordinates": [-90.150646, 38.624514]
            }
        },
    {
        "type": "Feature",
        "properties": {
            "City": "Atlantic City",
            "Country": "New Jersey"
            },
        "geometry": {
            "type": "Point",
            "coordinates": [-74.422927, 39.364283]
            }
        },
    {
        "type": "Feature",
        "properties": {
            "City": "Melrose",
            "Country": "United States of America"
            },
        "geometry": {
            "type": "Point",
            "coordinates": [-71.066163, 42.458429]
            }
        },
    {
        "type": "Feature",
        "properties": {
            "City": "Philadelphia",
            "Country": "United States of America"
            },
        "geometry": {
            "type": "Point",
            "coordinates": [-75.165222, 39.952584]
            }
        },
    {
        "type": "Feature",
        "properties": {
            "City": "London",
            "Country": "England"
            },
        "geometry": {
            "type": "Point",
            "coordinates": [-0.127758, 51.507351]
            }
        },
    {
        "type": "Feature",
        "properties": {
            "City": "Hartford",
            "Country": "Connecticut"
            },
        "geometry": {
            "type": "Point",
            "coordinates": [-72.685093, 41.763711]
            }
        },
    {
        "type": "Feature",
        "properties": {
            "City": "Rochester",
            "Country": "United States of America"
            },
        "geometry": {
            "type": "Point",
            "coordinates": [-77.610922, 43.16103]
            }
        },
    {
        "type": "Feature",
        "properties": {
            "City": "Berwyn",
            "Country": "United States of America"
            },
        "geometry": {
            "type": "Point",
            "coordinates": [-87.793668, 41.850587]
            }
        },
    {
        "type": "Feature",
        "properties": {
            "City": "Toronto",
            "Country": "Canada"
            },
        "geometry": {
            "type": "Point",
            "coordinates": [-79.383184, 43.653226]
            }
        },
    {
        "type": "Feature",
        "properties": {
            "City": "Torreon",
            "Country": "Mexico"
            },
        "geometry": {
            "type": "Point",
            "coordinates": [-103.406786, 25.542844]
            }
        },
    {
        "type": "Feature",
        "properties": {
            "City": "Camargo",
            "Country": "Mexico"
            },
        "geometry": {
            "type": "Point",
            "coordinates": [-105.166953, 27.676379]
            }
        },
    {
        "type": "Feature",
        "properties": {
            "City": "Linares",
            "Country": "Mexico"
            },
        "geometry": {
            "type": "Point",
            "coordinates": [-99.561785, 24.863949]
            }
        },
    {
        "type": "Feature",
        "properties": {
            "City": "Petrograd",
            "Country": "Russia"
            },
        "geometry": {
            "type": "Point",
            "coordinates": [30.121383, 60.076238]
            }
        },
    {
        "type": "Feature",
        "properties": {
            "City": "Minneapolis",
            "Country": "United States of America"
            },
        "geometry": {
            "type": "Point",
            "coordinates": [-93.265011, 44.977753]
            }
        },

    {
        "type": "Feature",
        "properties": {
            "City": "Goldsboro",
            "Country": "United States of America"
            },
        "geometry": {
            "type": "Point",
            "coordinates": [-77.992765, 35.384884]
            }
        },

    {
        "type": "Feature",
        "properties": {
            "City": "Seattle",
            "Country": "United States of America"
            },
        "geometry": {
            "type": "Point",
            "coordinates": [-122.332071, 47.60621]
            }
        },

    {
        "type": "Feature",
        "properties": {
            "City": "Melbourne",
            "Country": "Australia"
            },
        "geometry": {
            "type": "Point",
            "coordinates": [144.96328, -37.814107]
            }
        },

    {
        "type": "Feature",
        "properties": {
            "City": "Wilkesbarre",
            "Country": "United States of America"
            },
        "geometry": {
            "type": "Point",
            "coordinates": [-75.881307, 41.245915]
            }
        },

    {
        "type": "Feature",
        "properties": {
            "City": "Antlers",
            "Country": "United States of America"
            },
        "geometry": {
            "type": "Point",
            "coordinates": [-95.620248, 34.231212]
            }
        },

    {
        "type": "Feature",
        "properties": {
            "City": "Mannheim",
            "Country": "Germany"
            },
        "geometry": {
            "type": "Point",
            "coordinates": [8.466039, 49.487459]
            }
        },

    {
        "type": "Feature",
        "properties": {
            "City": "Hoboken",
            "Country": "United States of America"
            },
        "geometry": {
            "type": "Point",
            "coordinates": [-74.032363, 40.743991]
            }
        },

    {
        "type": "Feature",
        "properties": {
            "City": "Stamford",
            "Country": "United States of America"
            },
        "geometry": {
            "type": "Point",
            "coordinates": [-73.538734, 41.05343]
            }
        },

    {
        "type": "Feature",
        "properties": {
            "City": "Pittsburgh",
            "Country": "United States of America"
            },
        "geometry": {
            "type": "Point",
            "coordinates": [-79.995886, 40.440625]
            }
        },

    {
        "type": "Feature",
        "properties": {
            "City": "Provo",
            "Country": "United States of America"
            },
        "geometry": {
            "type": "Point",
            "coordinates": [-111.658534, 40.233844]
            }
        }
    ]
}