{
"type": "FeatureCollection",
"features": [
    {
        "type": "Feature",
        "properties": {
            "City": "New York City",
            "Country": "United States of America"
            },
        "geometry": {
            "type": "Point",
            "coordinates": [-74.005941, 40.712784]
            }
        },
    {
        "type": "Feature",
        "properties": {
            "City": "Rio de Janeiro",
            "Country": "Brazil"
            },
        "geometry": {
            "type": "Point",
            "coordinates": [-43.172896, -22.906847]
            }
        },
    {
        "type": "Feature",
        "properties": {
            "City": "Sao Paulo",
            "Country": "Brazil"
            },
        "geometry": {
            "type": "Point",
            "coordinates": [-46.633309, -23.55052]
            }
        },
    {
        "type": "Feature",
        "properties": {
            "City": "Santos",
            "Country": "Brazil"
            },
        "geometry": {
            "type": "Point",
            "coordinates": [-46.328887, -23.967882]
            }
        },
    {
        "type": "Feature",
        "properties": {
            "City": "Buenos Aires",
            "Country": "Argentina"
            },
        "geometry": {
            "type": "Point",
            "coordinates": [-58.381559, -34.603684]
            }
        },
    {
        "type": "Feature",
        "properties": {
            "City": "Montevideo",
            "Country": "Uruguay"
            },
        "geometry": {
            "type": "Point",
            "coordinates": [-56.164531, -34.901113]
            }
        },
    {
        "type": "Feature",
        "properties": {
            "City": "Buenos Aires",
            "Country": "Argentina"
            },
        "geometry": {
            "type": "Point",
            "coordinates": [-58.381559, -34.603684]
            }
        },
    {
        "type": "Feature",
        "properties": {
            "City": "Rosario",
            "Country": "Argentina"
            },
        "geometry": {
            "type": "Point",
            "coordinates": [-60.650539, -32.944243]
            }
        },
    {
        "type": "Feature",
        "properties": {
            "City": "Cordoba",
            "Country": "Argentina"
            },
        "geometry": {
            "type": "Point",
            "coordinates": [-68.845839, -32.889459]
            }
        },
    {
        "type": "Feature",
        "properties": {
            "City": "Mendoza",
            "Country": "Argentina"
            },
        "geometry": {
            "type": "Point",
            "coordinates": [-68.8272, -32.8908]
            }
        },
    {
        "type": "Feature",
        "properties": {
            "City": "Santiago de Chile",
            "Country": "Chile"
            },
        "geometry": {
            "type": "Point",
            "coordinates": [-70.666667, -33.45]
            }
        },
    {
        "type": "Feature",
        "properties": {
            "City": "Valparaiso",
            "Country": "Chile"
            },
        "geometry": {
            "type": "Point",
            "coordinates": [-71.612688, -33.047238]
            }
        },
    {
        "type": "Feature",
        "properties": {
            "City": "Callao",
            "Country": "Peru"
            },
        "geometry": {
            "type": "Point",
            "coordinates": [-77.125984, -12.050849]
            }
        },
    {
        "type": "Feature",
        "properties": {
            "City": "Lima",
            "Country": "Peru"
            },
        "geometry": {
            "type": "Point",
            "coordinates": [-77.042793, -12.046374]
            }
        },
    {
        "type": "Feature",
        "properties": {
            "City": "Callao",
            "Country": "Peru"
            },
        "geometry": {
            "type": "Point",
            "coordinates": [-77.125984, -12.050849]
            }
        },
    {
        "type": "Feature",
        "properties": {
            "City": "Buenaventura",
            "Country": "Colombia"
            },
        "geometry": {
            "type": "Point",
            "coordinates": [-77.019721, 3.883047]
            }
        },
    {
        "type": "Feature",
        "properties": {
            "City": "Cali",
            "Country": "Colombia"
            },
        "geometry": {
            "type": "Point",
            "coordinates": [-76.531985, 3.451647]
            }
        },
    {
        "type": "Feature",
        "properties": {
            "City": "Cartago",
            "Country": "Colombia"
            },
        "geometry": {
            "type": "Point",
            "coordinates": [-75.911629, 4.747221]
            }
        },
    {
        "type": "Feature",
        "properties": {
            "City": "Manizales",
            "Country": "Colombia"
            },
        "geometry": {
            "type": "Point",
            "coordinates": [-75.513817, 5.070275]
            }
        },
    {
        "type": "Feature",
        "properties": {
            "City": "Medellin",
            "Country": "Colombia"
            },
        "geometry": {
            "type": "Point",
            "coordinates": [-75.564574, 6.253041]
            }
        },
    {
        "type": "Feature",
        "properties": {
            "City": "Bogota",
            "Country": "Colombia"
            },
        "geometry": {
            "type": "Point",
            "coordinates": [-74.072092, 4.710989]
            }
        },
    {
        "type": "Feature",
        "properties": {
            "City": "Cucuta",
            "Country": "Colombia"
            },
        "geometry": {
            "type": "Point",
            "coordinates": [-72.49669, 7.889097]
            }
        },
    {
        "type": "Feature",
        "properties": {
            "City": "Caracas",
            "Country": "Venezuela"
            },
        "geometry": {
            "type": "Point",
            "coordinates": [-66.803718, 10.46964]
            }
        },
    {
        "type": "Feature",
        "properties": {
            "City": "La Guaira",
            "Country": "Venezuela"
            },
        "geometry": {
            "type": "Point",
            "coordinates": [-66.933056, 10.6]
            }
        },
    {
        "type": "Feature",
        "properties": {
            "City": "Vina del Mar",
            "Country": "Chile"
            },
        "geometry": {
            "type": "Point",
            "coordinates": [-71.550028, -33.015348]
            }
        }
    ]
}